[
    {
        "id":"#0001",
        "cityId":"#0001",
        "name":"Burcht van Leiden",
        "category":
        [
            "building",
            "castle"
        ],
        "coords":
        {
            "latitude":52.158979,
            "longitude":4.492440
        }
    },
    {
        "id":"#0002",
        "cityId":"#0001",
        "name":"Morspoort",
        "category":
        [
            "building",
            "gate"
        ],
        "coords":
        {
            "latitude":52.162057,
            "longitude":4.482130
        }
    },
    {
        "id":"#0003",
        "cityId":"#0001",
        "name":"Molen De Put",
        "category":
        [
            "building",
            "windmill"
        ],
        "coords":
        {
            "latitude":52.161350,
            "longitude":4.481973
        }
    },
    {
        "id":"#0004",
        "cityId":"#0001",
        "name":"Station Leiden Centraal",
        "category":
        [
            "building",
            "station"
        ],
        "coords":
        {
            "latitude":52.165879,
            "longitude":4.483116
        }
    },
    {
        "id":"#0005",
        "cityId":"#0001",
        "name":"Molen De Valk",
        "category":
        [
            "building",
            "windmill",
            "museum"
        ],
        "coords":
        {
            "latitude":52.164451,
            "longitude":4.486489
        }
    }
]